{
	"tiks": [
		{
			"lon": 37.6806436,
			"lat": 52.7842846,
			"desc": "п. Красная Заря, ул. Ленина, 1, к. 40",
			"phone": "(48663)2-10-30",
			"url": "http://www.ryazan.vybory.izbirkom.ru/region/ryazan?action=show_komissia&region=62&sub_region=62&type=100&vrnorg=262200070603&vrnkomis=462403113454",
			"name": "Краснозоренского района"
		}
	],
	"uiks": [
		{
			"lon": 37.6869456,
			"lat": 52.7844925,
			"obj": "МБУК «Межпоселенческий Дом культуры»",
			"addr": "пос. Красная Заря, ул.Ленина, д.9",
			"phone": "8(48663)2-15-44",
			"count": 1485,
			"number": 1
		},
		{
			"lon": 37.6472172,
			"lat": 52.8215479,
			"obj": "МБУК «МДК» Оревский сельский Дом культуры",
			"addr": "с. Орево, ул. Школьная, д.3",
			"phone": "8(48663)2-44-18",
			"count": 473,
			"number": 2
		},
		{
			"lon": 37.5387530,
			"lat": 52.8076452,
			"obj": "МБОУ Верхне-Любовшенская основная школа",
			"addr": "с. Верхняя Любовша, ул. Набережная, д.10",
			"phone": "8(48678)2-63-79",
			"count": 368,
			"number": 3
		},
		{
			"lon": 37.6657827,
			"lat": 52.7710017,
			"obj": "здание администрации Россошенского сельского поселения",
			"addr": "пос. Россошенский, ул. Ленина, д.18",
			"phone": "8(48678)2-11-98",
			"count": 622,
			"number": 4
		},
		{
			"lon": 37.7068118,
			"lat": 52.7800844,
			"obj": "административное здание ООО «Краснозоренское»",
			"addr": "д. Гриневка, ул. Садовая, д.51а",
			"phone": "8(48678)2-33-32",
			"count": 485,
			"number": 5
		},
		{
			"lon": 37.7210319,
			"lat": 52.7530309,
			"obj": "МБУК «МДК» Бегичевский сельский клуб",
			"addr": "д. Бегичево, ул. 8 Марта, д.5",
			"phone": "8(48678)2-33-19",
			"count": 216,
			"number": 6
		},
		{
			"lon": 37.7955304,
			"lat": 52.7565634,
			"obj": "здание школы",
			"addr": "с. Шатилово, ул. Школьная, д.3",
			"phone": "89102079144",
			"count": 175,
			"number": 7
		},
		{
			"lon": 37.6923,
			"lat": 52.7139,
			"obj": "МБУК «МДК» Большечернавский сельский Дом культуры",
			"addr": "с. Большая Чернава, ул. Школьная, д.18",
			"phone": "8(48678)2-31-19",
			"count": 299,
			"number": 8
		},
		{
			"lon": 37.7879798,
			"lat": 52.6597344,
			"obj": "МБОУ Пол-Успенская средняя общеобразовательная школа",
			"addr": "с. Пол-Успенье, ул. Центральная, д.33",
			"phone": "8(48678)2-21-47",
			"count": 224,
			"number": 9
		},
		{
			"lon": 37.6684902,
			"lat": 52.6788785,
			"obj": "МБУК «МДК» Рахмановский сельский Дом культуры",
			"addr": "д. Зверево-Бакулино, ул. Молодежная, д.6",
			"phone": "8(48678)2-14-43",
			"count": 251,
			"number": 10
		},
		{
			"lon": 37.8652275,
			"lat": 52.7641466,
			"obj": "МБУК «МДК» Малиновский сельский клуб",
			"addr": "с. Малиново, ул. Центральная, д.2",
			"phone": "8(48678)2-25-43",
			"count": 374,
			"number": 11
		},
		{
			"lon": 37.0875731,
			"lat": 52.7568942,
			"obj": "МБОУ Труновская средняя общеобразовательная школа",
			"addr": "пос. Ключики, ул. Школьная, д.4",
			"phone": "8(48678)2-34-89",
			"count": 533,
			"number": 12
		},
		{
			"lon": 37.4639095,
			"lat": 52.718828,
			"obj": "МБОУ Покровская средняя общеобразовательная школа",
			"addr": "с. Покровское, ул. Ленина, д.4",
			"phone": "8(48678)2-43-33",
			"count": 178,
			"number": 13
		},
		{
			"lon": 37.5576367,
			"lat": 52.6737815,
			"obj": "МБОУ Протасовская средняя общеобразовательная школа",
			"addr": "д. Протасово, ул. Центральная, д.2",
			"phone": "8(48678)2-35-36",
			"count": 206,
			"number": 14
		},
		{
			"lon": 37.630052,
			"lat": 52.6599409,
			"obj": "МБОУ Медвеженская основная школа",
			"addr": "с. Медвежье, ул. Толстовка, д.31",
			"phone": "8(48678)2-35-36",
			"count": 163,
			"number": 15
		}
	]
}
